seconds_elapsed,accelerometer_z,accelerometer_y,accelerometer_x,gravity_z,gravity_y,gravity_x,gyroscope_z,gyroscope_y,gyroscope_x,orientation_qz,orientation_qy,orientation_qx,orientation_qw,orientation_roll,orientation_pitch,orientation_yaw,magnetometer_z,magnetometer_y,magnetometer_x,barometer_relativeAltitude,barometer_pressure,location_bearingAccuracy,location_speedAccuracy,location_verticalAccuracy,location_horizontalAccuracy,location_speed,location_bearing,location_altitude,location_longitude,location_latitude,battery_batteryLevel,battery_batteryState,battery_lowPowerMode,totalAcceleration_z,totalAcceleration_y,totalAcceleration_x,magnetometerUncalibrated_z,magnetometerUncalibrated_y,magnetometerUncalibrated_x,gyroscopeUncalibrated_z,gyroscopeUncalibrated_y,gyroscopeUncalibrated_x,accelerometerUncalibrated_z,accelerometerUncalibrated_y,accelerometerUncalibrated_x
0.0,0.08194757674051367,0.21474477519159732,-0.13280717639819437,2.894135267838188,9.353721121083135,-0.3965066243772921,0.0030890321001854977,0.010183393725045871,-0.016673831269145012,0.7978107901506646,0.5869016023569329,0.06464513902400815,0.12070937212123427,0.12765233008580845,-1.2603416442871094,-2.747820255368255,38.08341495807354,32.31971295674642,5.947836799499316,0.3553035960477941,910.3297155043658,1.0938639640808105,1.1307882070541382,5.075418949127197,3.812000036239624,17.559602737426758,124.00038146972656,949.7930864548147,-44.0958013,-19.9315777,,,,2.9261594580077546,9.32713508605957,-0.5335119081343093,83.95510201705129,53.42886744047466,0.6335526593519669,-3.6199404685585587E-4,0.0017420955054048034,-0.02512464185969697,2.8327810168266296,9.097278222805116,-0.47973176010134744
1.0,-0.1616862416267395,-0.01325535774230957,0.2541283335950639,2.724819708753515,9.410484243322301,-0.3976051953655702,0.01043560746539798,-0.007545309322368767,0.008297582234566411,0.7900770593572546,0.5972363529381929,0.06585845385712606,0.12106327753927973,0.14596832226271983,-1.2859383865639016,-2.727764195866055,40.15125141143799,33.948751564025876,4.759312653541565,0.79078125,910.2817456054687,1.0992012023925781,0.9235718250274658,5.085254192352295,3.8259999752044678,17.610145568847656,124.99283599853516,950.0266443119974,-44.095663,-19.9316735,0.7699999809265137,charging,false,2.524494343057827,9.263901472091675,-0.1378310202896871,85.91100288391114,55.04512729644775,-0.6369375316426158,0.0011114353571125928,-0.01184399083851733,-0.016298213341441523,2.607711408847805,9.369252098931206,-0.3032016416804658
2.0,-0.0933883719974094,-0.1083983580271403,0.15053935624935008,2.7068212341379234,9.421930048200819,-0.243343070977264,-0.0020758089365834303,-0.012805535246756065,-0.003563377356234317,0.7912675009833442,0.5979287458790673,0.0667268088846295,0.10904087581568295,0.08978784484443841,-1.2899331869902435,-2.8000947413621127,32.487376346588135,32.05893873214722,5.123250210285187,0.970771484375,910.2619116210938,1.1115877628326416,0.9364222884178162,3.26220703125,3.8450000286102295,17.46135902404785,124.99908447265625,949.300048828125,-44.0955316,-19.931767,,,,2.5777346555971437,9.190034089265046,-0.08966438372240022,78.24712791442872,53.15700222015381,-0.2743125087767839,-0.01030834304401651,3.393732024253243E-5,-0.025622384149755817,2.554205223331573,9.287408691865426,-0.07094276075561841
3.0,-0.14539065846690424,0.13619784072593408,-0.014099607589068237,2.725723116486161,9.417363043184634,-0.22838847587505975,-0.004649359980787806,0.013258027956234637,0.0031221977551467717,0.7923921534308681,0.5973602124938259,0.0646770737927269,0.10528891754371149,0.08363204408023092,-1.2881072693400912,-2.8145699721795543,30.69975128173828,30.843938732147215,5.309062697887421,1.2474658203125,910.2314721679687,1.0968056917190552,0.8720524907112122,3.6635124683380127,3.86299991607666,17.61871337890625,125.00092315673828,949.300048828125,-44.0953928,-19.9318617,,,,2.542972260741172,9.424641529719034,-0.23937089327308866,76.45875328063966,51.94068977355957,-0.0873750026896596,-0.008806633787268462,-0.004691780027416017,-0.0187331862535858,2.7054626756451197,9.431620633160627,-0.11458961213766425
4.0,0.06707909372117785,-0.0994296603732639,0.14842711913364906,2.722009817759196,9.418984183558711,-0.20501531191446162,0.009332656222223132,-0.015000124233429906,0.0019004684333965459,0.7918984625074599,0.5971188942591349,0.06828409047038467,0.10806273462043868,0.07521247291178615,-1.2886986754558705,-2.8138155848891646,34.08093906402588,32.97412656784058,4.093687658309936,1.56179443359375,910.1968334960937,1.1051416397094727,0.9489688277244568,3.8387608528137207,3.88100004196167,17.44168472290039,124.99884796142578,949.300048828125,-44.0952593,-19.9319543,,,,2.752964600092835,9.194642526132089,-0.05388281780674502,79.8405029296875,54.07312717437744,-1.302375050112605,-0.002426490889370648,-0.0026725337374955416,-0.026063563923849467,2.5680969258149466,9.485259824328953,-0.3964330963100548
5.0,-0.2450268688025298,-0.0017400759237783928,-0.24860012531280518,2.7314707967970104,9.416943179236519,-0.1702128792250598,-0.002200244227424264,0.023795445285806502,-0.007211597843302621,0.7923947903845046,0.59658858511183,0.06934532730115785,0.10665043484833506,0.06219815179981567,-1.2879473611160561,-2.8273214631610446,30.137063636779786,30.76912612915039,5.8905002307891845,2.01985595703125,910.1463842773437,1.1178808212280273,0.9776788949966431,3.8486928939819336,3.878000020980835,17.63797378540039,125.00154876708984,949.300048828125,-44.0951237,-19.9320478,,,,2.452753993096175,9.29910703058596,-0.4167056286759261,75.8951279449463,51.86812713623047,0.49387501817196605,0.0017816887088378684,-0.00952779439103324,-0.027404072949947376,2.786351687503311,9.159544476922953,0.016727190253869543
6.0,0.2557755528755908,0.0048366852526394825,-8.950101317099805E-4,2.7462972245126402,9.410081593495494,-0.2614078367093824,-0.01041863832829727,0.012381324852834007,0.009966145097105592,0.7915807726248255,0.5958304337735446,0.07033459378300973,0.11580792898839375,0.09471878662424267,-1.2855474274113494,-2.7801367561772183,30.063563594818117,30.57750114440918,4.9845002031326295,2.96748291015625,910.0420483398437,1.0942697525024414,0.9075374603271484,3.209613800048828,3.878000020980835,17.491281509399414,124.99919128417969,949.300048828125,-44.0949894,-19.9321424,,,,2.9462071956583746,9.324497523131194,-0.3089842943440157,75.82275329589844,51.67556480407715,-0.41250001568347217,-0.018919839606193516,9.162976154281447E-4,-0.014245027087680582,2.7819443396982497,9.469772833364981,-0.4968873599751128
7.0,-0.09398289963051125,-0.1415946571915238,0.13744308164826147,2.7402370461711176,9.412610548513907,-0.2494850269070378,0.01962685943969215,0.00975686789671373,-0.0036595334919790425,0.7915551629331377,0.5961053481808415,0.07029210872672222,0.11467551950503278,0.0907165030086482,-1.2863764497968886,-2.785849761079859,30.21562623977661,31.42706377029419,4.3265626740455625,3.330849609375,910.0020288085938,1.0690345764160156,0.8131115436553955,3.1969187259674072,3.88100004196167,17.489965438842773,125.00009155273438,951.1667047992934,-44.0948584,-19.9322329,,,,2.6148455722464456,9.089048200183445,-0.05182233487290365,75.97500282287598,52.52456470489502,-1.0711875370517374,0.007338861303449246,-0.00932417231443752,-0.028557928973491978,2.4086861847727388,9.288893231639156,-0.3709761332806752
8.0,-0.3215228584077623,0.1952463874110469,-0.09610264831119114,2.722418537846318,9.41732026912548,-0.2648804990781678,1.6968477413886122E-4,0.015746736795538,0.004570173660155248,0.791198609051881,0.5970933205551572,0.06833553203830013,0.11316830416520436,0.09699216167683955,-1.2880941695637174,-2.7845973571141562,29.577751007080078,30.614626197814943,5.73000020980835,4.63201171875,909.8587963867187,1.0116881132125854,0.8701384663581848,3.703787326812744,3.88100004196167,17.509822845458984,125.00018310546875,951.3918236710635,-44.0947243,-19.9323257,,,,2.3789531384353286,9.528397025885406,-0.3730587781303459,75.3358162689209,51.71156482696533,0.33337501268833875,-0.00548081496607564,-8.738768713859221E-4,-0.016383053033172876,2.7419974835658514,9.408401383293999,-0.1486430230240027
9.0,0.018437988228268094,0.021977927949693467,0.0353498003549046,2.6941529468253806,9.427434903604013,-0.1830657011380902,2.2624824379346575E-5,-0.0048473254342011555,-8.37111448938096E-4,0.7908031123655813,0.5979890414962062,0.07100623542511905,0.10950858918605028,0.06782058612615974,-1.2918221199953999,-2.8152621807875455,29.94525119781494,30.489563694000243,4.8886877012252805,6.073212890625,909.7001342773438,1.0141310691833496,0.8333731293678284,3.8887124061584473,3.88100004196167,17.569528579711914,125.00044250488281,952.4488851360102,-44.0945911,-19.9324221,,,,2.657008002201716,9.35190416265417,-0.14224000823580557,75.70425315856933,51.58837734222412,-0.5086875191703438,-0.0029609975738114575,-0.011258577800213566,-0.025138781988870405,2.3176259679926767,9.368676154701799,-0.09808358118903858
10.0,-0.03571107652452257,-0.17667367723253039,-0.31267918260009203,2.718903753492567,9.421564773277,-0.04937490398771371,0.0041798988262329384,0.009519309443594129,-0.021227549959870952,0.7922205019880224,0.5963323524704686,0.0757838570409351,0.10490464902034512,0.018714082911308785,-1.2897184093793232,-2.8640770514806113,30.177188720703125,30.73368869781494,5.527312707901001,7.3349462890625,909.5612866210937,1.0097248554229736,0.8332123756408691,4.823826789855957,3.86299991607666,17.4905948638916,124.9996109008789,954.1118695181555,-44.0944547,-19.9325158,,,,2.716717778808541,9.142377111646864,-0.3660575499827111,75.93656517028809,51.83137733459473,0.13068750504404306,0.019657968065682024,-0.01774901565254873,-0.0355319682736687,3.5553356437357486,9.14434904522366,0.186950348869518
11.0,0.10199197354140105,0.029964738421969943,-0.16268295684346445,2.943598084979587,9.35356224907769,0.10371520156385722,-4.5814894622674693E-4,0.022036381469526398,-0.001691190006332127,0.7993091951917719,0.5855206449826559,0.08407357486861723,0.10574906402164036,-0.034988250066008836,-1.2656971260353371,-2.9041309621598987,29.62125108718872,30.267938632965087,5.699437704086304,7.15337646484375,909.5812377929688,0.9628637433052063,0.7893004417419434,4.806636333465576,3.878000020980835,16.864524841308594,125.99120330810547,955.2759263444123,-44.0943252,-19.9326023,,,,3.0157984323385687,9.20988572968377,-0.045485783428712574,75.37912818908691,51.367502250671386,0.30318751234561203,-4.4966404675506055E-4,-0.02093908735373083,-0.022330500969676197,3.584448301129871,8.959569860387731,0.3792402325887923
12.0,-0.2111588297066865,-0.009597690017135055,0.18149498656943994,2.896137325852006,9.36718636971933,0.1929459199309349,0.012488790858899139,-0.009276094434123175,0.0035973150817746363,0.798075407743454,0.5869404353477337,0.08852718646327655,0.10361236609794476,-0.06656875130203035,-1.270299869555014,-2.932466295030382,29.63700101852417,30.25743854522705,6.0645002317428585,8.94091796875,909.3845288085937,0.9539195895195007,0.8222055435180664,3.850358486175537,3.878000020980835,16.324148178100586,126.99099731445312,955.6912134787553,-44.0942021,-19.932688,,,,2.5920472982581013,9.260290092892117,0.38484564759872025,75.39600273132324,51.35587734222412,0.667875023521483,-0.0012303339743750617,-0.014617736385741703,-0.02566492329286018,2.440967122575751,9.436118231879341,0.16218020173686523
13.0,-0.3727704507333261,0.027787288029988606,-0.10377899557352066,2.811723068908409,9.391137282053629,0.2583710769260371,0.008359797422868994,0.0065441715603271776,-4.5249217483042567E-4,0.7958510153823428,0.5902716992078004,0.09062474027827934,0.09987333099599238,-0.0916240975536682,-1.2787096367941961,-2.9600626450997813,29.442376174926757,30.166688537597658,5.693625197410584,10.0824951171875,909.2588745117188,0.944632887840271,0.8385578989982605,4.495637893676758,3.88100004196167,16.290246963500977,126.99976348876953,956.664835430483,-44.0940777,-19.9327754,,,,2.409107140230912,9.330745387960363,0.12480341891447704,75.20156547546387,51.263439712524416,0.29700001012533905,0.0025283015113220448,-0.008297580022675296,-0.024926676849847555,2.5288368899513176,9.27500151263343,0.27996025182720685
14.0,-0.2497686677508884,0.19186906461362485,-0.48884811611087237,2.7691691142541393,9.403080463409424,0.284297507946138,0.0031900718308019416,0.028467429389517445,-0.008727448000745089,0.7952208463792447,0.5924846673453296,0.08813082633746995,0.09382942332713692,-0.1023382468631974,-1.2829512004499082,-2.9831711804425276,29.416126194000245,31.223063659667968,5.050125193595886,10.5886474609375,909.2032104492188,0.9575989246368408,0.8737199306488037,4.852273941040039,3.88100004196167,16.239892959594727,126.00641632080078,958.3036785066593,-44.0939502,-19.9328615,,,,2.472846766125481,9.429527120770148,-0.19794964059343878,75.17550270080567,52.32037746429443,-0.3468750109151006,0.0052093193686838886,0.006583765040785592,-0.017486004736080456,2.5883472937124745,9.339829285939535,0.13399806346192403
15.0,-0.19785325173978452,-0.1377556147398772,-0.19426218806593507,2.7541730757112854,9.406765319682934,0.31082319164717637,0.00491285102028962,0.00619509091209796,-0.003561457213813896,0.7956855981438248,0.5937714576721191,0.08369086061914761,0.08545775325210006,-0.11239211744180432,-1.2842506523485537,-3.0117029834676674,29.396063632965088,31.702313652038573,4.530750181674957,9.66723388671875,909.3045874023437,0.9563469886779785,0.8101171851158142,5.037374496459961,3.86299991607666,16.259384155273438,125.00594329833984,958.6169561519979,-44.0938237,-19.9329461,,,,2.516473975584463,9.133005195193821,0.11208601958221859,75.15694084167481,52.79962715148926,-0.8671875306218862,0.0011114349359154908,0.024247938018460344,-0.03139166203780203,2.388169934352239,9.349356280432808,0.07282599744697411
16.0,-0.09474760956234402,0.0562644534640842,-0.1743364163019039,2.7133048154689647,9.419967933937356,0.2651367711800116,0.021227551367364532,0.02182710325319527,0.004151619035164239,0.795110857045209,0.5965899747830851,0.07573400299858164,0.07827825278595642,-0.0973693406968205,-1.2890620717295893,-3.0185290619179055,29.234438705444337,31.386376209259033,4.914375219345093,9.8928759765625,909.2797436523438,0.9741790890693665,0.8536549210548401,5.04734992980957,3.88100004196167,16.249496459960938,124.00621795654297,958.4943678646327,-44.0936953,-19.9330272,,,,2.579086152215799,9.339253266652426,0.08693923084582719,74.99494079589844,52.4844397354126,-0.48206251915544274,0.008628465087288836,0.016976950496124726,-0.021948710310324613,2.395835825966464,9.463945936273646,-0.11549800486062411
17.0,-0.043658680386013456,0.11306031545003255,-0.042932772526034606,2.7072426698825978,9.421517672362151,0.2746574746237861,0.004705921302687515,0.010848506215821814,-0.0041007129389240785,0.7956820671205167,0.5975204893836269,0.07024959392017788,0.07011228855009433,-0.10111527696803764,-1.289619125701763,-3.041890029554014,28.055626106262206,30.682876110076904,5.029125173091888,10.56338623046875,909.2059741210937,0.9577286839485168,0.7861984968185425,5.057294845581055,3.878000020980835,16.31842041015625,122.0107421875,958.6827913363458,-44.0935604,-19.9331078,,,,2.621647378567744,9.388660616344875,0.22747323620650503,73.81350280761718,51.780752410888674,-0.3671250135079026,1.1877914059570887E-4,0.004488159605696435,-0.02328073592313255,2.4485000872777567,9.30455740292867,0.23813016364281928
18.0,-0.24458403719796074,0.06807535666006582,0.09220195534052672,2.6547351722364074,9.433620753111663,0.3572832268697244,0.002205900829587201,0.008948037870275719,-0.004157273883551911,0.7946560283501943,0.5998004454153555,0.06987802353170183,0.06220627727883833,-0.1337398614872385,-1.2941200622805842,-3.086454422385604,27.96412612915039,30.677438564300537,4.833000197410583,11.2517529296875,909.1302807617187,0.897953450679779,0.8111507296562195,5.067382335662842,3.878000020980835,16.3696231842041,122.00041198730469,958.748627033429,-44.0934268,-19.9331863,,,,2.3709770711483777,9.362583301685474,0.4442009344628012,73.72369018554687,51.7747522354126,-0.5634375229477883,-0.0016374569531762972,-0.007746104807463578,-0.02484183454523898,2.590585008539535,9.272653014571578,0.6662017068032313
19.0,-0.07669822374979655,-0.05461558589228877,0.11350398924615648,2.6386927013044006,9.436982013561108,0.38724141871487655,7.126759002049868E-4,-0.0020022791793087016,0.0030826051822967,0.7945505248175727,0.6007209464355752,0.06777515538312771,0.056778704954518214,-0.14566838023839174,-1.2953648765881856,-3.10919549730089,28.729313602447508,31.019438571929932,4.677937676906586,11.931865234375,909.0554467773437,0.8826656937599182,0.7969569563865662,5.0773091316223145,3.88100004196167,16.469280242919922,122.00070190429688,959.4592311563106,-44.0932952,-19.9332644,,,,2.523851828718627,9.245999662964433,0.4951370375023948,74.48794067382812,52.11712703704834,-0.7185000297054649,-0.010257437630368967,0.008619981174383106,-0.025554509982208,2.273270126018259,9.41456068003619,0.2794728207712372
20.0,-0.06325969431135389,0.10698728208188657,-8.808054305888989E-4,2.6101710354840315,9.446367316775852,0.35078200532330406,0.01205892360303551,0.022907429292832536,9.049846126732451E-4,0.7938841868329931,0.6024629606140984,0.06288171773431478,0.05317592931290468,-0.13359183845696626,-1.2988977012810883,-3.109335153191178,28.130438690185546,30.53943857192993,4.746187677383423,12.54435302734375,908.9880346679688,0.8770319223403931,0.8219962120056152,5.087276458740234,3.878000020980835,16.52890396118164,121.00572204589844,960.3356494964576,-44.0931582,-19.9333414,,,,2.5093398127290936,9.417396642543652,0.34485448220813714,73.8896280670166,51.63712749481201,-0.6513750257343054,0.0019259211419719374,8.484081869634489E-6,-0.022305048807336587,2.4827085923472487,9.310428637045401,0.29916929274245546
21.0,-0.1331042249997457,0.03132698271009657,-0.08352798389063941,2.5890630748536854,9.452747927771675,0.3333130638908457,0.010537417592853739,0.0206619355303701,0.005814529024064541,0.7934927686497018,0.6037984810493611,0.058468428888806594,0.04869417114942162,-0.12810266445632335,-1.3013518916236029,-3.116608465159381,28.252501220703124,31.066126194000244,4.9764376902580265,13.16496826171875,908.9198315429687,0.8718233108520508,0.8100610971450806,5.097257614135742,3.88100004196167,16.56902313232422,120.00537109375,960.8056832926109,-44.0930225,-19.933418,,,,2.419387408704669,9.350685622957018,0.2450870736329644,74.01056526184082,52.16437744140625,-0.4209375144913793,-5.59959410262915E-4,0.009137519049949737,-0.017392677086010937,2.4032801822931678,9.244360111377857,0.2122965474716491
22.0,-0.1104283266597324,0.1543199927718551,-0.11118795805507237,2.576846617239493,9.456844683046695,0.31106137622285773,0.0033258195380093873,0.03270389054712184,-0.005175381631555932,0.793346615853133,0.6047362839734113,0.0539152357313368,0.044507791943572184,-0.12018575753878664,-1.3029201295640733,-3.1212127385316073,27.540563621520995,31.086751136779785,4.793250193595886,13.873203125,908.8418823242188,0.8634176850318909,0.799897313117981,5.107342720031738,3.88100004196167,16.668582916259766,119.00548553466797,961.4324356788479,-44.0928821,-19.9334881,,,,2.4299335421787367,9.477438767751059,0.19548031784318112,73.29806579589844,52.18350234985351,-0.6037500220537185,-0.00448815925564203,0.01273483399078638,-0.023450420163701184,2.5912718307916767,9.389391704841897,0.21584146562963724
23.0,0.12784519681224116,-0.026809983783298068,-0.1400373958879047,2.5730134027975575,9.459447260256168,0.2580941658880975,-0.005424253172316606,0.02020944373496739,-0.007313409328667654,0.7934349885693303,0.605428045546567,0.04754402950682022,0.04056922111798216,-0.10008694645431307,-1.3039245362635012,-3.1158680032800743,27.341626243591307,31.113563709259033,4.210500154495239,14.6144189453125,908.7603588867188,0.8436862826347351,0.8278433084487915,5.117286205291748,3.86299991607666,16.679155349731445,118.00495910644531,962.1682477793302,-44.0927417,-19.9335594,,,,2.6657595091533883,9.303671095106337,0.1145453095022175,73.09819030761719,52.21031475067139,-1.1865000477433205,-0.008636949338122375,0.021549951686109934,-0.02720045122744826,2.639080207584039,9.237153215228387,0.21363842575195827
24.0,0.16927959784021918,0.029720054482514004,-0.10691623206970827,2.6676462326409682,9.435320764217737,0.1596986474293583,0.007969522777582623,0.02502848714896202,0.004852981202054286,0.7965487601622095,0.6019990095552409,0.03967643409686269,0.038977389136012994,-0.05973854787507147,-1.294769768444997,-3.0889694690704346,27.158626117706298,30.64743869781494,3.0255001378059387,15.29548095703125,908.6854565429687,0.8480224609375,0.796697199344635,4.930138111114502,3.8340001106262207,16.43122673034668,117.00238800048828,963.8804528329433,-44.0926008,-19.9336285,,,,2.7980072801863707,9.289402820445874,0.07123079116421717,72.91856575012207,51.74531467437744,-2.3724375891685487,-0.004182726959697902,0.01337115149362944,-0.018919840037900332,2.733799872574983,9.29177349585074,-0.05374988354742527
25.0,-0.09406792455249363,-0.034895861590350116,-0.01716804531989274,2.6336738665898642,9.444540677247224,0.17660414206760902,0.02091080681269954,0.02379544572128604,-0.0029072643223184125,0.7957703338729011,0.6037007316395089,0.0355073316367688,0.03188890046267598,-0.06705562722075868,-1.298232584087937,-2.4142743834742793,26.546626071929932,30.97218864440918,3.25200012922287,15.73864501953125,908.6367456054687,0.8534330129623413,0.8235158324241638,4.9401140213012695,3.8259999752044678,16.289630889892578,115.00729370117188,964.8208244287147,-44.0924592,-19.9336937,,,,2.5253805824451976,9.304291442588523,0.147889731693323,72.30394035339356,52.070627479553224,-2.1435000896453857,0.01160643104069297,0.001238697780839478,-0.026343543540860992,2.5203955264555082,9.290244685279,0.15684066378270034
26.0,0.012463282655786586,0.08423128834477177,-0.07597510433859295,2.6392104581550315,9.441965880217376,0.23170295026567247,-0.0019683424354837,0.01734177296317217,0.005543031833238072,0.7962404853767819,0.6036252556023775,0.0327615223273083,0.023644903743708576,-0.08756520571532073,-1.297231086978206,1.156532397976628,24.60750099182129,30.789001178741454,2.757375099658966,16.76595947265625,908.5237670898438,0.8626410961151123,0.8247715830802917,5.17464017868042,3.8340001106262207,16.200767517089844,114.99920654296875,964.1420848261852,-44.0923185,-19.9337561,,,,2.518512308390604,9.434567345513237,0.09748536712464152,70.36612815856934,51.88781494140625,-2.6411250925064085,6.022633374734244E-5,0.0019100284577727737,-0.0117957130923841,2.7516131065785885,9.311757961908976,0.4405895454671096
27.0,-0.18147223525577122,0.0038784609900580514,-0.064205143738676,2.653083470132616,9.437445481618246,0.25569107687031783,0.00393668411076457,0.02110311567041747,-0.013065719071568714,0.7968575512921369,0.6032220279728925,0.029143486137467402,0.01688529557927891,-0.09609701622415472,-1.295534626201347,3.1112233797709146,25.019813575744628,31.251751079559327,2.653312612771988,17.546279296875,908.4379467773438,0.8830084800720215,0.823729932308197,4.007212162017822,3.8259999752044678,16.050556182861328,114.00269317626953,964.9531042831355,-44.0921786,-19.9338142,,,,2.525845863269987,9.259093708462185,0.22716306991599225,70.77975288391113,52.34981472015381,-2.7444376146793363,-0.0038857783721242514,0.003716094309412357,-0.03372482620195822,2.617238389259135,9.175433423784044,0.3042429695509512
28.0,-0.07781616184446546,-0.027293708589341905,0.24223500269430656,2.672496027416653,9.429505365866202,0.3340639460969854,-0.006108647660800704,-0.00187784382055893,0.0020758092890631546,0.7976053688261244,0.6024455704070903,0.028228717097253712,0.009102159541928105,-0.12430942086157976,-1.2925691229325753,3.0705987303345292,27.176063652038575,32.559939022064206,2.4174375903606413,18.04260498046875,908.3834252929687,0.884516179561615,0.8037425875663757,4.091616630554199,3.8340001106262207,16.010360717773438,113.99960327148438,965.9573314276336,-44.0920359,-19.9338704,,,,2.5194428590712725,9.318980746799046,0.5686498666678004,72.93562805175782,53.658002128601076,-2.9795626163482667,-0.008416359228754623,-0.012090031972749986,-0.023111050486881543,2.679761958894906,9.284617079628838,0.6508699180364298
29.0,0.1081712974442376,0.020793323163632995,-0.07125063847612452,2.6655877475385314,9.433480298077619,0.27050274169003524,-0.003416318411904353,0.013009157473721576,9.332658955827355E-4,0.7974147840782448,0.603000956553,0.021829201253475965,0.005993631935712916,-0.1011470422424652,-1.294046159143801,3.0801753070619373,24.96993860244751,30.754313793182373,0.5475000221282244,18.3247998046875,908.3523608398438,0.8932758569717407,0.8099753856658936,4.075307369232178,3.8450000286102295,16.009273529052734,113.00379180908203,966.5867382131731,-44.0918948,-19.9339267,,,,2.730764516249851,9.314416532163266,0.19678750737673706,70.72706550598144,51.85275230407715,-4.849312689304352,-0.007686715117112423,0.010282890690885123,-0.02248321766657884,2.670102051010838,9.360323446768302,0.18748208776944214
30.0,-0.10186470879448785,-0.06422743973908601,0.037662969419249785,2.6654049732066967,9.433784926379168,0.26290583941671586,0.009807773542383479,0.006001180888334703,-0.002205900856535192,0.11809094415770637,0.08938862217797174,0.0036237204826816364,0.0014606511715640038,-0.09828958977703695,-1.2941613329781427,3.0683035541463783,30.773813877105713,32.537063941955566,3.279750130176544,18.95356201171875,908.2832592773437,0.8909948468208313,0.785449206829071,4.534628391265869,3.8450000286102295,15.761377334594727,112.0013427734375,967.9016147683797,-44.0917565,-19.933979,,,,2.5537842688737094,9.2269900198336,0.3507922243119942,76.53112808227539,53.63343994140625,-2.1176250910758974,0.003478535677358094,7.635810858725259E-4,-0.025138782138431754,2.418744898504681,9.320398719222457,0.2480116331415182
31.0,-0.14325100183486938,0.038343879911634654,0.11892864577196262,2.6476486788855658,9.436787587625009,0.3255357830612748,-0.008750072375362463,0.012551008754935875,0.0028280781245686943,-0.796831382645501,-0.6039556430445777,-0.015466340110395793,0.007077248206500102,-0.12237610943891385,-1.295283611173983,3.0311939186520047,24.903563480377198,32.18137636184692,3.8784376335144044,19.3229443359375,908.2426342773438,0.8355252742767334,0.7767945528030396,5.075768947601318,3.86299991607666,15.888262748718262,111.00418090820312,967.4366253449114,-44.0916147,-19.9340288,,,,2.4631893496822426,9.339585604491058,0.3792402375903394,70.66219039916992,53.27850234985352,-1.518562556542456,-0.015840062989607558,0.005845636531982261,-0.02364555757877598,2.536968053491027,9.357088609978005,0.42016193567326776
32.0,0.035791896007679125,0.0033444740154125073,-0.23867359122744314,2.7127937299233897,9.4202124454357,0.2556348881787724,0.012641507511337599,0.030888264465762337,-0.012183358895493223,-0.7988865905337863,-0.6013240736943705,-0.009274271739370845,0.009361785000052166,-0.09399296550287141,-1.2892285497100264,3.047473337915209,26.12287612915039,31.9220636177063,1.780687573030591,19.79083740234375,908.1911987304687,0.8001958727836609,0.7900389432907104,5.0660080909729,3.8450000286102295,15.889286994934082,110.00299072265625,967.8866001861501,-44.0914717,-19.9340771,,,,2.707095077577627,9.270855930616271,0.02487632910114766,71.87981575012208,53.01937728881836,-3.6151876413822173,0.004810560087207705,0.008543622943559766,-0.027938579471083358,3.0822435794053256,9.031753389923662,0.1808575107888491
33.0,-0.28641502945511427,-0.10563341776529948,0.008426094772639099,2.7870909814481384,9.399203141530355,0.23856133470932642,0.009413656697362521,0.020291083733955363,-0.0019305629643637968,-0.8011817777598346,-0.598225466631077,-0.004454027792369878,0.014366640002225284,-0.08538503130828892,-1.281531031484957,3.0420410721390336,25.043626098632814,31.45162618637085,2.276062593460083,20.31041748046875,908.1340698242187,0.8121095895767212,0.8001102805137634,5.0690178871154785,3.8559999465942383,15.611157417297363,108.00301361083984,968.3661451945726,-44.0913301,-19.9341225,,,,2.450006659384127,9.122702748687178,0.24264994158659614,70.80375305175781,52.549127388000485,-3.1203751254081724,-0.002842217733915378,0.008424843664720861,-0.027446494960006222,2.484591814378897,9.263967920232702,0.09620033201106169
34.0,-0.2652100412933915,0.040922571111608436,0.027088328506107682,2.7696205995700978,9.40447814376266,0.23294605977005428,-4.694611179055991E-4,0.017296523542393482,-0.007488749179713152,-0.800503957050818,-0.5989858850284859,1.577599132023924E-4,0.02003867355071836,-0.08394487422925455,-1.283424492235537,3.028787303853918,24.413063468933107,31.28737617492676,2.26987508893013,20.85641845703125,908.0740698242188,0.8293591737747192,0.8155246376991272,5.079075813293457,3.8559999465942383,15.699136734008789,108.00082397460938,968.8048049732793,-44.0911877,-19.934167,,,,2.4544378255528434,9.275776933740687,0.25585477985441685,70.17262832641602,52.385439758300784,-3.127125127315521,-0.0036567044177597077,-0.0013320251083415416,-0.030458396168089368,2.6409229117411153,9.237159455264056,0.36676653326247577
35.0,-0.16724251155500058,-0.0030887303528962314,-0.003344787491692437,2.8082307091465704,9.392494554872867,0.25289685279130936,0.0022002442532943357,0.015147184058420223,-0.011278374332404282,-0.8015863751923596,-0.5973356145399588,0.0026946874309538137,0.025204796551002398,-0.08983129014571507,-1.2791531792393438,3.011879051173175,23.595188274383545,31.06781364440918,2.232562584877014,21.2831982421875,908.0271655273438,0.8410695791244507,0.813055157661438,5.089005470275879,3.8450000286102295,15.828027725219727,107.00376892089844,969.4571546154984,-44.0910438,-19.9342098,,,,2.5852676295433885,9.203106032477486,0.24453318063859586,69.35437797546386,52.16587738037109,-3.16575012922287,-0.0022907432414487833,0.004725717720349267,-0.0325540016250064,2.783583887749248,9.176851511001587,0.32788316469372214
36.0,0.403994999550007,-0.1924977567460802,-0.20786495203221286,3.1597976552115545,9.273477960515905,-0.03910458110988623,-0.14761999856434865,-0.21179473632515441,-0.0580943729383526,-0.08334543749138161,-0.07739053832160102,0.020075806701141927,0.04806847106104855,0.004527410003902332,-1.2412611400639568,0.5152201034404613,26.167125988006593,31.609876403808595,1.4199375596642494,21.5589453125,907.9968530273437,0.8767118453979492,0.9839328527450562,5.099019527435303,3.86299991607666,15.717528343200684,113.96189880371094,969.8185825351169,-44.0908982,-19.9342488,,,,3.501851634294898,8.89901813754329,-0.24626133809969933,71.92556549072266,52.706814765930176,-3.975375168323517,-0.1553632752313408,-0.20917876787845874,-0.08244977655057381,3.5932662983735404,9.079011678695679,-0.348687431257632
37.0,-0.04195146428214179,-0.03787597903498897,0.11069604450905765,3.7089537426277444,9.069538134115714,-0.2160709760910659,0.05820183868356118,0.0524382151413226,-0.07722348837112938,0.8273181407539932,0.5564356965047342,0.03169298403103043,0.06684605135685867,0.05728436956889237,-1.1816986070738897,-2.94214661916097,28.091813735961914,31.713376216888427,2.0611875796318055,22.16117919921875,907.9306909179687,0.9496644735336304,1.0363997220993042,5.109018802642822,3.8450000286102295,15.496110916137695,116.97537231445312,970.2323114495805,-44.0907575,-19.9342909,,,,3.5957699241461576,8.857143878936768,-0.10116322842185144,73.84987800598145,52.812939682006835,-3.3337501311302185,0.05341673054499552,0.03721184775026308,-0.10358400221836443,3.7017409404118857,9.023267728311044,-0.014423415168291993
38.0,-0.37596910088150587,0.13179858525594076,0.07579132400591064,4.019434531529744,8.943276634922734,0.02952282601553533,0.024202688842908375,0.011148282374186372,0.024027346560076154,0.8380112372062825,0.542027551818777,0.034728408618657676,0.05102959392523324,-0.007555402302252197,-1.1483819882074993,-3.0249978966183133,29.20537612915039,30.806063709259032,1.0106250359490514,22.63488037109375,907.8785815429687,1.0212433338165283,1.2169049978256226,5.1188483238220215,3.86299991607666,14.858531951904297,115.00259399414062,970.5710386581205,-44.0906239,-19.9343373,,,,3.5658153317592762,8.902341524759928,0.10473030024096025,74.96550338745118,51.903564834594725,-4.385250179767609,0.01455045999076295,-2.460427139238972E-4,0.003580346760928579,3.4990821569054216,8.860068374209934,0.10543928523030546
39.0,-0.32248617543114555,0.15025568891454627,-0.02445019126214363,3.849229923001042,9.019481676596182,0.042317301552328795,0.003947996417991817,0.010548729533588307,-0.003399349326543786,0.8334309701566343,0.5503441194693247,0.029362825297371106,0.0405501431475083,-0.011006341374013573,-1.1674045125643413,-3.0516372565869934,26.886376132965086,28.82475112915039,2.8942501044273374,22.75493896484375,907.8654077148437,1.070251703262329,0.9780218601226807,5.083902359008789,3.86299991607666,15.155653953552246,114.00891876220703,971.3053731059289,-44.0904811,-19.9343671,,,,3.452909544662193,8.996747308307224,0.017059940637813673,72.64312805175781,49.92300235748291,-2.5035000944137575,0.003232493051554128,6.872226011991086E-4,-0.025842973633391213,3.4769042332967124,9.00346045140867,0.004829956339327274
40.0,-0.3051328349996496,0.1479458455686216,-0.04523176458422785,3.7756127737186573,9.049561836101391,0.022826314972782577,0.01948545591504727,0.009700306630865843,-0.022143848813828772,0.8313322001033359,0.553881973028183,0.02605519036727923,0.036993850884890114,-0.005551538001142304,-1.1754743589295282,-3.056176454932601,26.46056354522705,29.02837610244751,2.469937596321106,22.85165283203125,907.8547827148437,1.1166865825653076,0.8482686281204224,5.093876361846924,3.8559999465942383,15.406229972839355,112.01051330566406,971.532734164808,-44.0903293,-19.9343999,,,,3.398760872858542,9.025616257279008,-0.022842594491386856,72.21975326538086,50.12587726593018,-2.9272501158714292,0.012320540678149588,-0.005695668326257924,-0.04940261405525388,3.491571342503583,8.99727906121148,-0.07034455293022027
41.0,-0.3691993995949074,0.13461731981348107,-0.07484148967045325,3.6744890168861106,9.088984701368544,0.11522893820182178,0.020226411485863436,0.056753862920838095,0.07591691781999543,0.8287587905371631,0.5586707382290451,0.02067540623937492,0.020243518019991892,-0.03122018563886673,-1.1863747040430705,-2.5320495587808116,26.33325101852417,29.123063583374023,2.7665626072883605,22.9058740234375,907.8488549804688,1.1651204824447632,0.8758330941200256,4.116464614868164,3.8340001106262207,16.001008987426758,109.0176010131836,971.6486906595094,-44.0901745,-19.9344265,,,,3.2340327302614846,9.047594741538719,0.03810791574694492,72.09300323486327,50.22093971252441,-2.629312597513199,0.012938454746391572,0.04435557053269198,0.05659831807618806,3.326200734961916,9.000624533052799,0.06555891271327036
42.0,-0.006546309700718633,-0.2789931827121311,-0.02671782672405243,3.3485102918412952,9.19487354490492,0.4131482379442012,-0.11187309718311385,-0.22184571877328885,-0.13666402052924106,0.42047404249509174,0.2971279897071697,0.04429491485158602,0.04470208093213538,-0.12343335125802292,-1.2174277636739943,0.941117388230783,24.83343849182129,28.921501064300536,5.283187692165375,21.6521630859375,907.9865795898437,1.2553895711898804,0.9824342131614685,4.940737724304199,3.8559999465942383,16.416454315185547,110.99417114257812,971.6646063809637,-44.0900141,-19.9344525,,,,3.279429904840611,8.74512419656471,0.3786863331441526,70.59356559753418,50.018814659118654,-0.11287500098347664,-0.12045065759836386,-0.23072871795981578,-0.15137568430509418,3.3086868226528168,8.865430469782847,0.5818170810926635
43.0,0.8257835788546868,-0.2423260616806318,-0.06621165039404384,3.7407545638534256,8.932849020328161,1.1502912222003598,0.07033994866328107,-0.032941451520417574,0.03080342047744327,0.8239587950256636,0.5359647071586465,0.1401438201373478,0.10555830162088826,-0.31770063898051687,-1.1499788581200365,-0.8494112581576941,25.0792511177063,27.1970636177063,10.87256293296814,22.773017578125,907.8634545898437,1.3371260166168213,0.9669510722160339,4.950710296630859,3.86299991607666,15.999776840209961,121.90797424316406,971.6896168609352,-44.0898604,-19.934479,,,,4.5200641500177206,8.532473157953333,1.045242537304552,70.83806571960449,48.295877113342286,5.475937702283264,0.054706335766240954,-0.041335176986952625,7.381286931275907E-4,4.233036197997905,8.411680000799674,0.9855327394411519
44.0,0.4765878297664501,-0.40720720644350406,0.30020248117270293,3.611747849870611,8.840691690091733,1.4281482401959322,0.579094160777189,0.4318474560838055,0.12529515431917929,0.05811258488231235,-0.019905419261367234,0.07122807095206722,0.08145399229532038,-0.36027205976899024,-1.1361959168204554,1.0830897512259308,24.866813411712645,27.232876033782958,7.170375323407352,20.8910791015625,908.0702905273438,1.4279873371124268,0.9837137460708618,4.775808334350586,3.8559999465942383,15.569896697998047,110.06599426269531,971.3872223826651,-44.0897137,-19.9345048,,,,3.91966501589761,8.216310399549979,1.8544375626025376,70.6254401397705,48.330939292907715,1.7737500748038293,0.5773944816707323,0.44430232086839777,0.1048481474022588,3.8045436862718174,8.235364397366842,1.7863750673002667
45.0,1.076695864951169,-0.5377002866179855,-0.7253112605324498,3.1007416321447603,8.9078593077483,1.0714217146375664,-0.25602021594359364,0.576973095777686,0.514506522083172,-0.7951328423288133,-0.571944812381709,0.03789426953342088,0.13658533410893547,-0.6340055800974369,-1.1882847117053137,2.255374545576396,22.203375837802888,24.574125995635985,0.5580000221356749,23.57373779296875,907.7754272460937,1.508900761604309,0.9639407396316528,4.985031604766846,3.878000020980835,14.911405563354492,101.03023529052734,971.5168186916384,-44.0895715,-19.9345229,,,,3.9866419114448406,8.194974448945787,0.1981168505218294,67.9608777999878,45.67087669372559,-4.839562694430351,-0.26660854339004597,0.5495577118967453,0.4846787793535946,4.081845226111235,8.258450636157283,0.25319606891005403
46.0,0.34602269861433244,-0.5916956530676948,1.244722388546776,5.04624548168094,7.865884754392836,0.25653484727135273,-0.12188448736237155,0.6261986140506687,-0.8944474378669703,-0.7355837325255076,-0.4143067728038187,0.22528867451129136,0.4562026212612788,-0.21987849556629685,-0.9795321336498967,1.8463445551417492,1.715812563598156,10.712062921524048,-1.5916875725984574,22.2433935546875,907.9216284179688,1.656043291091919,0.36572572588920593,4.9506754875183105,3.86299991607666,14.211450576782227,94.02194213867188,971.8374075713177,-44.0894346,-19.9345338,,,,5.537811406784588,7.11368442023242,1.3992473484465369,47.473689231872555,31.80956386566162,-6.989625279903412,-0.12438733926278979,0.6300136912096705,-0.9199962918129232,5.315522595688149,7.055193247618498,1.4607517740654725
47.0,0.34113743128599944,-0.6245283462383129,0.19363578850472415,7.391631232367621,6.138549654572098,-0.6650153754658445,-0.15501824607727704,-0.04092794013451095,0.3719261488014901,-0.751784187776071,-0.2528869846352824,0.22819308605459002,0.5523777857974723,0.10911115675440265,-0.6828383190764321,1.9288963984560084,3.2388751389086248,11.8696879029274,-3.7880626517534255,21.65798095703125,907.9859936523437,0.6655595898628235,0.14597399532794952,4.773244857788086,3.88100004196167,14.090021133422852,97.99812316894531,972.5635582660489,-44.0893019,-19.9345537,,,,7.659004304144117,5.423354665438334,-0.5452977027054187,48.99712696075439,32.96718896865845,-9.183750386238097,-0.16791144949901435,-0.053043426017716735,0.34644517210593523,7.642963494967531,5.412165994997378,-0.5507258409979167
48.0,-0.31372444717972364,-0.13791944362499095,0.29523670452612416,3.5687479045655994,8.945719524666115,0.7545032128691673,0.4911635634510916,-0.2247699610888958,0.13790837782262652,-0.7167352195139285,-0.5076772504382663,0.23312849441060313,0.40657084849145675,-0.2228411594060836,-1.1608415411578283,1.955116746602235,3.6114376559853554,8.086500351428986,-2.2644375878572465,23.62308349609375,907.7700366210937,0.20642486214637756,0.04480142891407013,4.7354559898376465,3.8559999465942383,13.93000602722168,96.00009155273438,973.2206648645075,-44.0891696,-19.9345712,,,,3.1183353343081697,8.672896420514142,1.1960568117598693,49.36950206756592,29.185126342773437,-7.661250290870666,0.4884881960784292,-0.24249634774686354,0.11743026684659223,3.2020841207769184,8.640814940134684,1.077877976000309
49.0,0.014462912524188007,-0.18078266249762642,0.5488837747662155,5.353811272868404,7.817115686557911,-1.544836238026619,-0.5656494719819252,0.5371933463891899,0.1615624201518518,-0.7394762304094102,-0.3396213987359294,0.3220251503366011,0.4711046776285878,0.28023977022342106,-0.9267035170837685,2.1536792936148466,0.11250000204890967,9.476812890022993,2.2496250855922697,22.43723388671875,907.9003491210938,0.19112689793109894,0.04198191314935684,5.014716148376465,3.8340001106262207,14.089995384216309,95.00003814697266,972.2611699689937,-44.0890367,-19.934582,,,,5.1462968190511065,7.5002360785449,-1.081400752481487,45.87037673950195,30.575813846588133,-3.1473751072213054,-0.5669673594723766,0.5233499107610745,0.13208254299954408,5.321172284859198,7.508876880009969,-0.9616709839966562
50.0,-0.47859414639296355,0.46966309900637027,0.37288246938475855,4.399791192125391,8.09433991820724,-2.5422434213019356,0.14931118834970725,-0.8262342122141961,-0.07142593340810251,-0.7915799838525278,-0.39064849802741297,0.32185801560128174,0.3086369357727192,0.5194827245669095,-0.9714338933980023,2.680790755483839,2.658937595002353,4.541812690794468,-0.40462502717971804,15.93512939453125,908.6153198242188,0.16250590980052948,0.03779333457350731,4.924980163574219,3.8450000286102295,14.919979095458984,93.00006103515625,972.343018365177,-44.0888999,-19.934594,,,,4.0242624279387575,8.442254940668741,-2.047259150279893,48.41756454467773,25.640438537597657,-5.801250256597996,0.1340254272541238,-0.8197635652807852,-0.09698326792567968,4.099658476809661,8.332318041059706,-2.26653479260427
51.0,-0.5550533533096313,-0.26163329901518645,0.2671212439114849,3.597444156805674,8.87408752794619,1.39472104024349,0.18402301478717062,-0.3718752510224779,-0.035073814206515196,-0.7909056356659642,-0.5468477766822886,0.07728948292572534,0.23688873924590922,-0.3194797791204312,-1.1472586768644828,2.363111725559941,6.597937753200531,5.670187706947327,0.5683125223219395,1.7958984375,910.1710522460937,0.16981954872608185,0.041336048394441605,4.364779949188232,3.8340001106262207,15.619978904724121,93.0,970.8438489623088,-44.0887533,-19.9346028,,,,2.8992884093016946,8.483526922621817,1.7014323642020517,52.35562717437744,26.767126159667967,-4.827000190019607,0.17992512825488424,-0.3930151306105674,-0.05138051410257402,2.7596778136988482,8.32751018912704,1.5811683488837271
52.0,-0.6273034303276627,0.08936768107944065,0.9983977636805287,3.594339187774393,8.608772816481414,0.23267070714522292,-0.74102796150266,0.9860510107762409,0.6034479506735532,-0.8002700198579717,-0.5280407926550618,0.12049352848057256,0.19071215584322257,0.20765295720452237,-1.091662844022115,1.6101794507768419,6.838500256538391,3.5244376391172407,-1.5795000624284148,7.0491650390625,909.5928002929687,0.16535215079784393,0.04161195829510689,4.37479829788208,3.8450000286102295,16.149982452392578,92.00003814697266,955.6866747112812,-44.0886006,-19.9346098,,,,2.8983063852345503,8.545678068090368,1.2226658860497452,52.5982523727417,24.6225009727478,-6.9765003037452695,-0.7711998227880232,0.9786393030210294,0.5473433329413334,2.839970327085919,8.760810534159342,1.0769695895551532
53.0,-0.2139535297950109,-0.4861876611356382,-0.819748608050523,0.6997046673118517,9.103435304429796,-1.9535464678235628,0.6921550458711054,-0.7887338989724716,-0.2506977762613032,-0.7092897825770907,-0.5907024597680127,0.29160230330200176,0.16948580824666554,0.7910680535283906,-1.2066421773698595,-1.056356176182076,15.325688088312745,20.187938318252563,-9.751687880456448,15.1431884765625,908.7022045898437,0.16223342716693878,0.04351838305592537,4.954983234405518,3.8450000286102295,17.209962844848633,91.00003814697266,956.7334142856917,-44.0884396,-19.9346146,,,,0.47295912727713585,8.452424504138806,-2.740513041063591,61.08431503295898,41.2865640258789,-15.148688130378723,0.7194035781754388,-0.829902222716353,-0.2629094146056256,0.45239857446264337,8.502806575210005,-2.602947939325262
54.0,0.15340882043043771,-0.44390915941309045,0.2922859787940979,0.1422881993284035,9.48770468323319,1.5084549054779388,-0.6068036558658436,0.18849138062904347,0.3093068532266275,-0.6926076334935648,-0.6901756249092244,0.05039595010586911,0.15750593374724742,-0.7417772931081278,-1.3243427475293477,1.0542400337203786,22.507500944137572,29.438251304626466,-2.2402500987797977,15.49513671875,908.6635131835938,0.1418164223432541,0.037553854286670685,4.965087890625,3.86299991607666,16.990005493164062,90.00003051757812,963.0,-44.0882763,-19.9346151,,,,0.2936081823513464,8.893368504665515,1.7770696412082072,68.26594024658203,50.537252311706546,-7.637812790870666,-0.6144439283902692,0.20642927535612818,0.2998399609096453,0.16727604682522793,8.834788613849216,1.784181632929378
55.0,0.09210225498234784,-0.5864313620108145,0.09774709851653487,2.83682958105648,9.127622710333931,0.3759128676244506,0.2090967548666177,-0.7284562471840117,-0.9212972055430766,-0.6276215182410346,-0.5038468020933645,0.05987165908010394,0.0790989072761645,0.02772260771167499,-1.2264060256657776,1.4813557090582672,22.962188386917113,29.444813652038576,1.9871250548958779,11.09712158203125,909.1474584960938,0.11313110589981079,0.03037845715880394,4.975032329559326,3.878000020980835,17.229995727539062,90.0,964.8117382123164,-44.0881145,-19.9346176,,,,2.868418304786448,8.358461892163312,0.4645177865469897,68.72100280761718,50.54437686920166,-3.409500162936747,0.2111980140519639,-0.747214888377736,-0.9533817383150259,3.021758357338883,8.459337031399762,0.6066248523830263
56.0,0.12009551569267556,-0.09153725924315276,-0.06019282851506163,3.8814936346477933,8.913507496869123,-0.19300927268341184,-0.05487601926412295,0.36162629445876787,0.48378793446830026,-0.29483335216840106,-0.22682879920359011,0.028938170807022188,0.030118136330134736,0.07477966647948725,-1.1554257295749806,1.3911053648701421,24.042563400268556,27.389063549041747,0.7143750295415521,6.68241455078125,909.6331518554688,0.11027657985687256,0.029608871787786484,4.308488368988037,3.88100004196167,17.229999542236328,89.0000228881836,963.0,-44.0879518,-19.9346166,,,,3.931961496671041,8.66500895553165,-0.250249369095804,69.8002530670166,48.48656463623047,-4.6818751901388165,-0.06014472646509401,0.3496861494204495,0.4518363173119724,3.8954487917599856,8.742620662406638,-0.21989597911360087
57.0,-0.20051111115349662,-0.4337413752520526,-0.0415526705759543,3.8376539945602417,8.94528576179787,-0.7010739732671667,0.013919800508086121,0.08722922759544519,-0.25305639145274955,-0.8315595167654531,-0.5441160588352768,0.0809773239824507,0.05777392495009634,0.18836469175638976,-1.1591496997409396,0.6854963920734547,22.15200082778931,27.64218862533569,-2.2618125891685485,8.30656982421875,909.4544311523438,0.11281463503837585,0.030756736174225807,4.536247730255127,3.9000000953674316,17.4899959564209,88.0000228881836,963.0,-44.087787,-19.9346132,,,,3.569781215654479,8.353255208443713,-0.7304534167051315,67.9115657043457,48.73875202178955,-7.6576877880096434,0.001603519784920435,0.0764938461361453,-0.2820668103845997,4.097309978471862,8.424353023370108,-0.8204944555958112
58.0,0.18742912786978264,0.3347798894952845,0.24454788091006102,4.92762005770648,8.452171078434697,-0.5707327369945469,0.08489888979103719,-0.006238738545949606,0.035871337064438395,-0.8609497238088537,-0.4903215666611989,0.09031171006736932,0.0991061696851695,0.11469542944838328,-1.0396053581326097,2.977773732609219,30.0345011138916,28.501876049041748,-3.7301251590251923,18.75876708984375,908.3047338867187,0.14233580231666565,0.038827329874038696,4.846743106842041,3.88100004196167,17.5,87.00003051757812,959.3055840054122,-44.087622,-19.9346092,,,,5.036980284584893,8.65370950875459,-0.31707115636931527,75.79519073486328,49.59956481933594,-9.126750373840332,0.0768162460832779,-0.009790805233125057,0.012251233918100802,4.686675476807135,8.731055356838086,-0.6564088517420545
59.0,-0.12413366194124575,-0.0957579877641466,0.28423904324019394,4.436346764917727,8.724574442263004,-0.12275873993402692,-0.07659565728088771,-0.0233316415030492,-0.045684766709908016,-0.8437047534518771,-0.5164155192949154,0.08021679079091107,0.11847427321804894,0.02813093406277605,-1.0998590952820249,2.8797331341990717,27.34312614440918,29.86125123977661,-1.9871250738948583,19.04994384765625,908.2726342773437,0.5062953233718872,0.13994058966636658,4.55620813369751,3.878000020980835,17.74991226196289,87.99957275390625,963.0,-44.0874538,-19.934604,,,,4.251735664076275,8.511203685292491,0.16293349779314464,73.10137786865235,50.959877243041994,-7.383562812805176,-0.08516472929881679,-0.044016202481644645,-0.06506558018736541,4.453463899316611,8.674757571132094,0.09737458328406016
60.0,0.2888041072421604,-0.08035643012435348,0.1433651254132942,5.606801977864018,7.97777967982822,-0.541167191333241,-0.019920978927984834,-0.008314547818843965,-0.02437237229336191,-0.8821097259168271,-0.454793788768627,0.07521665965517361,0.08542382689537825,0.09817190164769138,-0.955911726863296,3.0005361106660633,27.251438541412355,24.57956356048584,-1.5697500640153885,10.0189697265625,909.2658959960937,0.49638453125953674,0.1388014554977417,5.024986743927002,3.86299991607666,17.95992660522461,88.0,965.6528225071838,-44.0872818,-19.9345996,,,,5.821094941209863,7.791872457221702,-0.39067260717490204,73.01119064331054,45.67762664794922,-6.96637526512146,-0.024740023156886712,-0.011199188376647524,-0.0475371612701565,5.765144950938675,7.833694966334217,-0.3648377309711474
61.0,-0.22672592019135096,0.025390166156696824,0.0668204589834753,2.6703865258198864,9.38116086204097,-0.7976894581092978,-0.03949693276512402,0.005024079935133664,0.32888987817460913,-0.7951548774287386,-0.5950067751812484,0.09546439546459126,0.059349074046004494,0.29957256452092584,-1.2813458937519002,-2.4711023051783725,21.208500843048096,31.093126201629637,-2.847937601804733,17.4052880859375,908.4534741210938,0.28804224729537964,0.08018103241920471,5.28318452835083,3.8559999465942383,17.870010375976562,88.9998550415039,966.7690931583434,-44.0871113,-19.9345957,,,,2.4388180130885706,9.288937498022008,-0.7311845590722643,66.96787803649903,52.190439529418946,-8.244000368118286,-0.034445984884061746,-0.006312268724690916,0.3062299096523525,2.5764939467664116,9.245600859324137,-0.49622267025902317
62.0,-0.04813150344071565,-0.010512749354044596,0.1533103405877396,3.340048595711037,9.169621926766855,-0.37722278710592677,0.04877868636200825,0.006354691417611859,-0.09176829622851478,-0.8134481509526571,-0.5667756188798834,0.08431471780770355,0.08789852351226189,0.12689857103827376,-1.2170286112361484,1.8565158932297319,25.141501045227052,31.977938899993898,-3.1151251444220542,10.16038330078125,909.2505737304688,0.2588757276535034,0.07298601418733597,5.293177127838135,3.8559999465942383,18.099979400634766,89.0,963.0,-44.0869392,-19.9345944,,,,3.2607747608864748,9.069927780716508,-0.18103476772429766,70.90200347900391,53.07656482696533,-8.511562852859496,0.047384439624794245,0.010545900714027489,-0.11487651527083169,3.2402806524877197,9.129881205382171,-0.15624246773896394
63.0,0.18983252622463084,-0.016321120438752352,0.6875774882457875,2.8246751847090543,9.366173514613399,-0.5791563927023499,-0.06037945823778433,-0.028328854342732853,0.08813704044937536,-0.7989043714823546,-0.5893046778661234,0.09220073551491455,0.0749565074565234,0.2085981653244407,-1.27132456390946,0.31798683713983605,22.511813411712648,31.55156379699707,-3.309750134944916,-1.756376953125,910.5623510742188,0.47466811537742615,0.13319545984268188,5.182002544403076,3.86299991607666,18.0200252532959,89.99960327148438,958.6583868547569,-44.0867668,-19.9345952,,,,2.945852705725917,9.254684695491084,0.09992250020581263,68.27119079589843,52.64868968963623,-8.70600040435791,-0.06430200236758941,-0.03515017745182073,0.06581219469889119,2.9771809577941895,9.160123860394513,-0.3504377329997994
64.0,0.1197709463260792,0.13401295520641185,0.3271441172670435,2.5701332445497864,9.442278332180447,-0.6372120612197452,-0.01687231150248812,-0.031400146445742357,0.0096805096362476,-0.7913376556502448,-0.6001409380524246,0.09372412027032287,0.06944716901138977,0.24305546118153465,-1.2973630759451125,-1.2703157575042159,20.47031322479248,31.13625129699707,-3.8251876425743103,4.03231689453125,909.9248120117187,0.5053897500038147,0.14214546978473663,5.151341915130615,3.88100004196167,18.05997085571289,92.99864959716797,952.4483180075099,-44.0865953,-19.9346023,,,,2.6714313869123107,9.462727325933951,-0.3310292826413556,66.23006576538086,52.233189811706545,-9.22050036907196,-0.013532351618373973,-0.04367683196323924,-0.0113688720076526,2.684791316105812,9.561785768579554,-0.12934536650707876
65.0,0.13905750380622017,-0.064968709592466,0.45435469735551764,2.6036909597891347,9.43795974166305,-0.5571860522031784,-0.015995607172684417,-0.04351563099111512,0.003453082664809362,-0.7926572528150346,-0.5998217066129049,0.08628219642021039,0.06666087428176845,0.2106727717651261,-1.2957583886605721,1.3881421486536663,19.884750843048096,29.847188701629637,-3.945187647342682,4.4426123046875,909.8796362304688,0.15906567871570587,0.04451077803969383,5.161303997039795,3.878000020980835,17.96000099182129,94.99990844726562,952.039995363244,-44.0864244,-19.9346153,,,,2.725358541365023,9.317673524220785,-0.07417749781678948,65.64319053649902,50.943564910888675,-9.341625385284424,-0.013939595118346106,-0.05798973319017225,-0.018020511270151474,2.7741233551943743,9.394576178656685,0.07382301223912725
66.0,0.17164580468778257,0.005004935794406467,0.25767884872577806,2.5817757977379694,9.44864234217891,-0.4760973475597523,-0.017149462935911422,-0.037916037529982904,0.01820433617103845,-0.7924301337312769,-0.6020623721458294,0.07669467175448383,0.06062902751620169,0.18238921380705303,-1.2997774128560666,2.5458867020077176,21.066000747680665,30.0114386177063,-3.3956251335144043,6.220224609375,909.6839526367188,3.0328245162963867,0.9728500247001648,5.08289909362793,3.88100004196167,17.871376037597656,96.96844482421875,952.246422679401,-44.0862542,-19.9346363,,,,2.7094949936425246,9.385315118012604,-0.1789521128974027,66.82444046020508,51.10893993377685,-8.793562870025635,-0.020574264897732064,-0.04469493958539614,-0.014185637462004606,2.727485497792562,9.523677887739959,-0.19902523744989326
67.0,0.05067586457287824,0.0021501382191975913,0.05399288292284365,2.5425539546542697,9.459416707356771,-0.4707891438846235,-0.00604643019054223,-0.03290468390548119,0.006597905135196116,-0.791946056816313,-0.6047415302859412,0.06807770290308529,0.04946613704992665,0.1830639679122854,-1.303942271956691,-3.1264522958684853,21.802875766754152,30.23718864440918,-2.8198126113414763,6.151845703125,909.6914624023437,0.22473876178264618,0.7300436496734619,5.055023670196533,3.878000020980835,17.73236656188965,99.9975814819336,954.2587859803485,-44.0860868,-19.9346639,,,,2.605207829149785,9.419855965508354,-0.45337342460536295,67.56131568908691,51.33375225067139,-8.216437835693359,-0.014168669067860011,-0.04589970091668268,-0.017307835077291302,2.598716167388139,9.406407338601571,-0.2844135597762134
68.0,0.1460104849603441,-0.029085689120822482,0.20832343730661604,2.522085432653074,9.46627406720762,-0.44545308417744106,-0.014773877862521826,-0.03245219160561209,0.0013885856088664797,-0.7918834388256073,-0.6066342879224706,0.0583016532300799,0.038670498946750606,0.17483714747208137,-1.3065640528996785,-3.10521278557954,22.324313316345215,30.35212621688843,-2.3911875885725022,6.0755322265625,909.6998999023438,0.40278783440589905,0.729496419429779,5.353186130523682,3.878000020980835,17.562402725219727,101.99705505371094,954.3586225623463,-44.0859216,-19.9346951,,,,2.6679972443315716,9.385492342489737,-0.23467387396980216,68.08331558227539,51.44962741851807,-7.788187837600708,-0.01602014379893941,-0.043741359939457665,-0.012699103714163664,2.5765160940311573,9.300879540266815,-0.5009418557639476
69.0,-0.26988996620531436,0.3914153575897217,0.05856428240184431,2.458174158025671,9.483309745788574,-0.42989811301231384,0.005701404641580733,-0.022627449482334434,0.013758598169429374,-0.7903497296350973,-0.6102290937194118,0.047520544517923285,0.025667902944540535,0.1731140403835862,-1.3134837128497936,-3.072901734599361,23.297250728607178,30.63843870162964,-1.6410000675916672,6.17075927734375,909.6893627929687,0.5134109854698181,0.7350822687149048,5.363200664520264,3.86299991607666,17.392507553100586,103.9961166381836,954.3745057636519,-44.0857577,-19.934733,,,,2.1373888150685363,9.834080122135303,-0.35994256080852616,69.05531547546387,51.73687740325928,-7.0376252889633175,-0.0040130422065784745,-0.03234189629276645,-0.006660123281310209,2.0491424208437956,9.426214606673629,-0.6983940275385976
70.0,-0.07658137657024243,-0.06479987391719112,-0.23281038138601515,2.288594228250009,9.527865162602177,-0.38833155620981147,0.00476248287789834,-0.02459579162381555,0.0021012617852883757,-0.7851585679584079,-0.6180322335826026,0.03654410638329056,0.014391825172222324,0.1680054316918055,-1.3317910587346111,-3.046155982547336,23.26425079345703,31.177126083374024,-1.5133125600591302,6.31524169921875,909.6734741210937,0.5764542818069458,0.7405058145523071,5.043825149536133,3.86299991607666,17.757478713989258,105.00064086914062,955.4348595343632,-44.0855947,-19.9347754,,,,2.2303590111012728,9.444019524556285,-0.6371228841906589,69.02400314331055,52.27500213623047,-6.911625275611877,0.009655057117925026,-0.03499746127312796,-0.02203355356404144,2.2232202501208693,9.55325577877186,-0.3744545910783388
71.0,0.18651055406641076,-0.15183341944659198,-0.12932652179841642,2.3135292397605047,9.526155683729383,-0.2630913144460431,-0.007350547272132112,-0.02858242066577077,-0.0018196281326829263,-0.7860542546819758,-0.617637876007292,0.0235722407836605,0.008278568986699812,0.11330037426065516,-1.3310574491818745,-3.0736655173478304,24.149813442230226,31.08562614440918,-1.3293750512599944,6.2149462890625,909.6845190429688,0.5886076092720032,0.7347152233123779,5.053878307342529,3.878000020980835,17.73137664794922,106.9959487915039,955.4552808699251,-44.0854336,-19.9348201,,,,2.4915044131102384,9.339275404259011,-0.39147021912935154,69.90731559753418,52.18500221252442,-6.726000275611877,-0.008925413121081268,-0.038705071240353085,-0.019004682440330118,2.528726104784895,9.451139856267858,-0.05392712727189064
72.0,0.26693739272930006,0.13848530804669415,-0.2106270166458907,2.3174968781294645,9.524868541293674,-0.2715533781382773,-0.0029016078767233047,-0.013300449469911487,0.0204837662599015,0.2617527500346855,0.20634202272803695,-0.0037903845724132326,0.0035922521821905523,0.11658144673263585,-1.3305323742054127,-3.0428253323943526,24.521813430786132,31.479938716888427,-0.7801875276863575,6.36819091796875,909.6676635742188,0.5778234601020813,0.7470707297325134,4.1579484939575195,3.88100004196167,17.462827682495117,107.99592590332031,954.5446847933503,-44.0852771,-19.9348685,,,,2.5770035267428115,9.633149411943224,-0.48131183345146755,70.28100303649903,52.57837730407715,-6.177750244140625,-2.6301158747325343E-4,-0.028362791098414972,-0.011368872966462126,2.539914768051218,9.567767805523342,-0.5223664713126642
